,station_id,name,rental_methods,lat,lon,capacity,region_id,station_type
0,1,Eads St & 15th St S,"['KEY', 'CREDITCARD']",38.858971,-77.05323,15,41,classic
1,2,18th St & S Eads St,"['KEY', 'CREDITCARD']",38.85725,-77.05332,11,41,classic
2,3,Crystal Dr & 20th St S,"['KEY', 'CREDITCARD']",38.856425,-77.049232,17,41,classic
3,4,Crystal Dr & 15th St S,"['KEY', 'CREDITCARD']",38.86017,-77.049593,11,41,classic
4,5,Aurora Hills Cmty Ctr / 18th St & S Hayes St,"['KEY', 'CREDITCARD']",38.857866,-77.05949,11,41,classic
5,6,Pentagon City Metro / 12th St & S Hayes St,"['KEY', 'CREDITCARD']",38.862303,-77.059936,19,41,classic
6,7,Army Navy Dr & S Joyce St,"['KEY', 'CREDITCARD']",38.8637,-77.0633,15,41,classic
7,8,Crystal City Metro / 18th St & S Bell St,"['KEY', 'CREDITCARD']",38.85740496261504,-77.05113172531128,19,41,classic
8,10,Crystal Dr & 27th St S,"['KEY', 'CREDITCARD']",38.848466,-77.051514,11,41,classic
9,11,S Glebe Rd & Potomac Ave,"['KEY', 'CREDITCARD']",38.8426,-77.0502,11,41,classic
10,12,Crystal Dr & 23rd St S,"['KEY', 'CREDITCARD']",38.8533,-77.0498,17,41,classic
11,13,Clark St & 26th St S,"['KEY', 'CREDITCARD']",38.850688,-77.05152,11,41,classic
12,14,19th St & Pennsylvania Ave NW,"['KEY', 'CREDITCARD']",38.9003,-77.0429,15,42,classic
13,15,14th & V St NW,"['KEY', 'CREDITCARD']",38.917931,-77.032112,31,42,classic
14,16,11th & Kenyon St NW,"['KEY', 'CREDITCARD']",38.929464,-77.027822,27,42,classic
15,17,16th & Harvard St NW,"['KEY', 'CREDITCARD']",38.926088,-77.036536,33,42,classic
16,18,Adams Mill & Columbia Rd NW,"['KEY', 'CREDITCARD']",38.922925,-77.042581,15,42,classic
17,19,14th & Harvard St NW,"['KEY', 'CREDITCARD']",38.9268,-77.0322,19,42,classic
18,20,Calvert & Biltmore St NW,"['KEY', 'CREDITCARD']",38.923203,-77.047637,23,42,classic
19,21,Lamont & Mt Pleasant NW,"['KEY', 'CREDITCARD']",38.9319,-77.0388,19,42,classic
20,22,4th & M St SW,"['KEY', 'CREDITCARD']",38.8767,-77.0178,23,42,classic
21,23,15th & P St NW,"['KEY', 'CREDITCARD']",38.90985,-77.034438,19,42,classic
22,24,14th & R St NW,"['KEY', 'CREDITCARD']",38.913046,-77.032008,19,42,classic
23,25,14th & Rhode Island Ave NW,"['KEY', 'CREDITCARD']",38.9086,-77.0323,23,42,classic
24,26,20th & E St NW,"['KEY', 'CREDITCARD']",38.8963,-77.045,15,42,classic
25,27,21st & I St NW,"['KEY', 'CREDITCARD']",38.90071062547463,-77.04644858837128,35,42,classic
26,28,Georgia & New Hampshire Ave NW,"['KEY', 'CREDITCARD']",38.9366839345886,-77.02418088912964,19,42,classic
27,29,14th St & Spring Rd NW,"['KEY', 'CREDITCARD']",38.9375,-77.0328,19,42,classic
28,30,John McCormack Dr & Michigan Ave NE,"['KEY', 'CREDITCARD']",38.9346,-76.9955,11,42,classic
29,31,5th & K St NW,"['KEY', 'CREDITCARD']",38.90304,-77.019027,19,42,classic
30,32,19th & East Capitol St SE,"['KEY', 'CREDITCARD']",38.8896,-76.9769,15,42,classic
31,33,Park Rd & Holmead Pl NW,"['KEY', 'CREDITCARD']",38.9308,-77.0315,19,42,classic
32,34,Good Hope & Naylor Rd SE,"['KEY', 'CREDITCARD']",38.86005647007575,-76.96783974766731,11,42,classic
33,35,Connecticut Ave & Newark St NW / Cleveland Park,"['KEY', 'CREDITCARD']",38.934267,-77.057979,11,42,classic
34,36,Randle Circle & Minnesota Ave SE,"['KEY', 'CREDITCARD']",38.878,-76.9607,11,42,classic
35,37,Minnesota Ave Metro/DOES,"['KEY', 'CREDITCARD']",38.897063,-76.947446,15,42,classic
36,38,Nannie Helen Burroughs & Minnesota Ave NE,"['KEY', 'CREDITCARD']",38.901385,-76.941877,11,42,classic
37,39,Anacostia Metro,"['KEY', 'CREDITCARD']",38.862669,-76.994637,11,42,classic
38,40,Good Hope Rd & MLK Ave SE,"['KEY', 'CREDITCARD']",38.867373,-76.988039,11,42,classic
39,41,19th & E Street NW,"['KEY', 'CREDITCARD']",38.8952,-77.0436,11,42,classic
40,42,4th & W St NE,"['KEY', 'CREDITCARD']",38.919077,-77.000648,15,42,classic
41,43,10th & U St NW,"['KEY', 'CREDITCARD']",38.9172,-77.0259,15,42,classic
42,44,Georgia Ave and Fairmont St NW,"['KEY', 'CREDITCARD']",38.9249,-77.0222,11,42,classic
43,45,1st & N St  SE,"['KEY', 'CREDITCARD']",38.8743,-77.0057,39,42,classic
44,46,20th St & Florida Ave NW,"['KEY', 'CREDITCARD']",38.9154,-77.0446,15,42,classic
45,47,7th & T St NW,"['KEY', 'CREDITCARD']",38.9155,-77.0222,15,42,classic
46,48,Eads St & 22nd St S,"['KEY', 'CREDITCARD']",38.85438051517749,-77.05341160297394,15,41,classic
47,49,M St & New Jersey Ave SE,"['KEY', 'CREDITCARD']",38.8763,-77.0037,17,42,classic
48,51,Massachusetts Ave & Dupont Circle NW,"['KEY', 'CREDITCARD']",38.9101,-77.0444,45,42,classic
49,52,1st & M St NE,"['KEY', 'CREDITCARD']",38.9057,-77.0056,15,42,classic
50,53,New Hampshire Ave & Ward Pl NW,"['KEY', 'CREDITCARD']",38.90571079190728,-77.0473176240921,19,42,classic
51,54,17th & K St NW,"['KEY', 'CREDITCARD']",38.90276,-77.03863,23,42,classic
52,55,3rd & H St NW,"['KEY', 'CREDITCARD']",38.899408,-77.015289,15,42,classic
53,56,3rd & D St SE,"['KEY', 'CREDITCARD']",38.8851,-77.0023,11,42,classic
54,57,Potomac & Pennsylvania Ave SE,"['KEY', 'CREDITCARD']",38.8803,-76.9862,15,42,classic
55,58,13th & E St SE,"['KEY', 'CREDITCARD']",38.88291548476762,-76.98790669441223,15,42,classic
56,59,17th & Corcoran St NW,"['KEY', 'CREDITCARD']",38.9121,-77.0387,19,42,classic
57,60,Van Ness Metro / UDC,"['KEY', 'CREDITCARD']",38.944551,-77.063896,15,42,classic
58,61,Florida Ave & R St NW,"['KEY', 'CREDITCARD']",38.9126,-77.0135,15,42,classic
59,62,8th & Eye St SE / Barracks Row,"['KEY', 'CREDITCARD']",38.8792,-76.9953,11,42,classic
60,63,Ward Circle / American University,"['KEY', 'CREDITCARD']",38.938736,-77.087171,15,42,classic
61,64,Wisconsin Ave & Newark St NW,"['KEY', 'CREDITCARD']",38.934881,-77.072755,19,42,classic
62,65,14th St Heights / 14th & Crittenden St NW,"['KEY', 'CREDITCARD']",38.947774,-77.032818,11,42,classic
63,66,Anacostia Library,"['KEY', 'CREDITCARD']",38.865784,-76.9784,11,42,classic
64,67,Pennsylvania & Minnesota Ave SE,"['KEY', 'CREDITCARD']",38.873057,-76.971015,11,42,classic
65,68,Eastern Market / 7th & North Carolina Ave SE,"['KEY', 'CREDITCARD']",38.886952,-76.996806,15,42,classic
66,69,14th St & New York Ave NW,"['KEY', 'CREDITCARD']",38.899632,-77.031686,23,42,classic
67,70,Benning Branch Library,"['KEY', 'CREDITCARD']",38.894,-76.947974,11,42,classic
68,71,USDA / 12th & C St SW,"['KEY', 'CREDITCARD']",38.88627694506511,-77.02824175357819,39,42,classic
69,72,Georgetown Harbor / 30th St NW,"['KEY', 'CREDITCARD']",38.9022212,-77.059219,19,42,classic
70,73,12th & Newton St NE,"['KEY', 'CREDITCARD']",38.933668,-76.991016,11,42,classic
71,74,US Dept of State / Virginia Ave & 21st St NW,"['KEY', 'CREDITCARD']",38.894919,-77.046587,15,42,classic
72,75,L'Enfant Plaza / 7th & C St SW,"['KEY', 'CREDITCARD']",38.886266,-77.022241,15,42,classic
73,76,10th St & Constitution Ave NW,"['KEY', 'CREDITCARD']",38.893028,-77.026013,31,42,classic
74,77,Kennedy Center,"['KEY', 'CREDITCARD']",38.897293,-77.05557,19,42,classic
75,78,Eastern Market Metro / Pennsylvania Ave & 7th St SE,"['KEY', 'CREDITCARD']",38.884,-76.995397,19,42,classic
76,79,18th & M St NW,"['KEY', 'CREDITCARD']",38.90506687455313,-77.04177886247635,27,42,classic
77,80,Tenleytown / Wisconsin Ave & Albemarle St NW,"['KEY', 'CREDITCARD']",38.947607,-77.079382,15,42,classic
78,81,13th & H St NE,"['KEY', 'CREDITCARD']",38.90042673988099,-76.98825001716614,27,42,classic
79,82,5th & F St NW,"['KEY', 'CREDITCARD']",38.897222,-77.019347,31,42,classic
80,84,Convention Center / 7th & M St NW,"['KEY', 'CREDITCARD']",38.905737,-77.02227,23,42,classic
81,85,Harvard St & Adams Mill Rd NW,"['KEY', 'CREDITCARD']",38.927872,-77.043358,15,42,classic
82,86,18th & L St NW,"['KEY', 'CREDITCARD']",38.903741450919384,-77.04245209693909,19,42,classic
83,87,C & O Canal & Wisconsin Ave NW,"['KEY', 'CREDITCARD']",38.90375,-77.06269,23,42,classic
84,88,Maine Ave & 7th St SW,"['KEY', 'CREDITCARD']",38.878693599396954,-77.02305436134338,19,42,classic
85,89,D St & Maryland Ave NE,"['KEY', 'CREDITCARD']",38.894758,-76.997114,23,42,classic
86,90,34th St & Wisconsin Ave NW,"['KEY', 'CREDITCARD']",38.916442,-77.0682,11,42,classic
87,91,13th St & New York Ave NW,"['KEY', 'CREDITCARD']",38.900283,-77.029822,23,42,classic
88,92,8th & H St NW,"['KEY', 'CREDITCARD']",38.8997,-77.023086,33,42,classic
89,93,10th & Monroe St NE,"['KEY', 'CREDITCARD']",38.932514,-76.992889,15,42,classic
90,94,Eckington Pl & Q St NE,"['KEY', 'CREDITCARD']",38.910972,-77.00495,23,42,classic
91,95,6th & H St NE,"['KEY', 'CREDITCARD']",38.899972,-76.998347,23,42,classic
92,96,3rd & H St NE,"['KEY', 'CREDITCARD']",38.900412,-77.001949,19,42,classic
93,97,Bladensburg Rd & Benning Rd NE,"['KEY', 'CREDITCARD']",38.900413,-76.982872,15,42,classic
94,98,4th & East Capitol St NE,"['KEY', 'CREDITCARD']",38.889955,-77.000349,11,42,classic
95,99,Lincoln Park / 13th & East Capitol St NE ,"['KEY', 'CREDITCARD']",38.890461,-76.988355,25,42,classic
96,100,Branch & Pennsylvania Ave SE,"['KEY', 'CREDITCARD']",38.8692,-76.9599,11,42,classic
97,101,13th & D St NE,"['KEY', 'CREDITCARD']",38.894832,-76.987633,31,42,classic
98,102,New Hampshire Ave & T St NW,"['KEY', 'CREDITCARD']",38.91554,-77.03818,23,42,classic
99,103,Metro Center / 12th & G St NW,"['KEY', 'CREDITCARD']",38.898364,-77.027869,39,42,classic
100,104,14th & D St NW / Ronald Reagan Building,"['KEY', 'CREDITCARD']",38.894514,-77.031617,25,42,classic
101,105,7th & F St NW / National Portrait Gallery,"['KEY', 'CREDITCARD']",38.89728304853854,-77.02219069004059,27,42,classic
102,107,20th & O St NW / Dupont South,"['KEY', 'CREDITCARD']",38.908905,-77.04478,19,42,classic
103,108,4th & D St NW / Judiciary Square,"['KEY', 'CREDITCARD']",38.895344,-77.016106,15,42,classic
104,109,19th St & Constitution Ave NW,"['KEY', 'CREDITCARD']",38.8923,-77.0436,35,42,classic
105,110,37th & O St NW / Georgetown University,"['KEY', 'CREDITCARD']",38.90774,-77.071652,23,42,classic
106,111,11th & H St NE,"['KEY', 'CREDITCARD']",38.899983,-76.991383,19,42,classic
107,112,25th St & Pennsylvania Ave NW,"['KEY', 'CREDITCARD']",38.903827,-77.053485,15,42,classic
108,113,Columbus Circle / Union Station,"['KEY', 'CREDITCARD']",38.89696,-77.00493,55,42,classic
109,114,North Capitol St & F St NW,"['KEY', 'CREDITCARD']",38.897446,-77.009888,23,42,classic
110,115,11th & M St NW,"['KEY', 'CREDITCARD']",38.905607,-77.027137,19,42,classic
111,116,36th & Calvert St NW / Glover Park,"['KEY', 'CREDITCARD']",38.922581,-77.070334,15,42,classic
112,117,14th & G St NW,"['KEY', 'CREDITCARD']",38.898409,-77.032278,23,42,classic
113,118,Potomac Ave & 35th St S,"['KEY', 'CREDITCARD']",38.844015,-77.050537,23,41,classic
114,124,Ohio Dr & West Basin Dr SW / MLK & FDR Memorials,"['KEY', 'CREDITCARD']",38.88412,-77.04657,31,42,classic
115,125,11th & F St NW,"['KEY', 'CREDITCARD']",38.897857,-77.026975,15,42,classic
116,126,23rd & E St NW ,"['KEY', 'CREDITCARD']",38.896104,-77.049882,19,42,classic
117,127,Lynn St & 19th St North,"['KEY', 'CREDITCARD']",38.897315,-77.070993,31,41,classic
118,128,Rosslyn Metro / Wilson Blvd & Ft Myer Dr,"['KEY', 'CREDITCARD']",38.8946,-77.072305,19,41,classic
119,129,Clarendon Blvd & Pierce St,"['KEY', 'CREDITCARD']",38.893438,-77.076389,15,41,classic
120,130,Wilson Blvd & N Uhle St,"['KEY', 'CREDITCARD']",38.891696,-77.0846,15,41,classic
121,131,Rhodes St & 16th St N,"['KEY', 'CREDITCARD']",38.892164,-77.079375,11,41,classic
122,132,Fairfax Village,"['KEY', 'CREDITCARD']",38.86559,-76.952103,15,42,classic
123,133,21st St & Constitution Ave NW,"['KEY', 'CREDITCARD']",38.892459,-77.046567,15,42,classic
124,134,Wilson Blvd & N Edgewood St,"['KEY', 'CREDITCARD']",38.889,-77.0925,15,41,classic
125,135,Columbia Rd & Belmont St NW,"['KEY', 'CREDITCARD']",38.920669,-77.04368,19,42,classic
126,136,Rhode Island & Connecticut Ave NW,"['KEY', 'CREDITCARD']",38.905995699991145,-77.03980207443237,23,42,classic
127,137,Thomas Circle,"['KEY', 'CREDITCARD']",38.9059,-77.0325,33,42,classic
128,138,Wilson Blvd & N Franklin Rd,"['KEY', 'CREDITCARD']",38.8904,-77.0889,11,41,classic
129,139,Clarendon Blvd & N Fillmore St,"['KEY', 'CREDITCARD']",38.8881,-77.09308,15,41,classic
130,140,Clarendon Metro / Wilson Blvd & N Highland St,"['KEY', 'CREDITCARD']",38.88786,-77.094875,17,41,classic
131,141,18th St & Pennsylvania Ave NW,"['KEY', 'CREDITCARD']",38.89968,-77.041539,27,42,classic
132,142,4th & C St SW,"['KEY', 'CREDITCARD']",38.88637194054526,-77.01770067214966,39,42,classic
133,143,4th & E St SW,"['KEY', 'CREDITCARD']",38.88412,-77.017445,19,42,classic
134,144,3rd & G St SE,"['KEY', 'CREDITCARD']",38.881185,-77.001828,19,42,classic
135,145,7th & R St NW / Shaw Library,"['KEY', 'CREDITCARD']",38.912719,-77.022155,15,42,classic
136,146,9th & Upshur St NW,"['KEY', 'CREDITCARD']",38.9418,-77.0251,15,42,classic
137,147,1st & Rhode Island Ave NW,"['KEY', 'CREDITCARD']",38.915417,-77.012289,15,42,classic
138,148,Columbia Rd & Georgia Ave NW,"['KEY', 'CREDITCARD']",38.92812111132096,-77.0237946510315,19,42,classic
139,149,California St & Florida Ave NW,"['KEY', 'CREDITCARD']",38.917761,-77.04062,19,42,classic
140,150,Benning Rd & East Capitol St NE / Benning Rd Metro,"['KEY', 'CREDITCARD']",38.889935,-76.93723,19,42,classic
141,151,3000 Connecticut Ave NW / National Zoo,"['KEY', 'CREDITCARD']",38.930282,-77.055599,15,42,classic
142,152,Anacostia Ave & Benning Rd NE / River Terrace ,"['KEY', 'CREDITCARD']",38.896544,-76.96012,15,42,classic
143,153,M St & Pennsylvania Ave NW,"['KEY', 'CREDITCARD']",38.905126,-77.056887,19,42,classic
144,154,15th St & Massachusetts Ave SE,"['KEY', 'CREDITCARD']",38.88732,-76.983569,15,42,classic
145,155,Congress Heights Metro,"['KEY', 'CREDITCARD']",38.844711,-76.987823,15,42,classic
146,156,N Quincy St & Glebe Rd,"['KEY', 'CREDITCARD']",38.876393,-77.107735,11,41,classic
147,157,Barcroft Community Center,"['KEY', 'CREDITCARD']",38.85033657788445,-77.1009886264801,11,41,classic
148,158,N Veitch St & 20th St N,"['KEY', 'CREDITCARD']",38.896923,-77.086502,15,41,classic
149,159,10th & K St NW,"['KEY', 'CREDITCARD']",38.9024,-77.02622,23,42,classic
150,160,Fairfax Dr & Wilson Blvd,"['KEY', 'CREDITCARD']",38.885801,-77.097745,11,41,classic
151,161,Key Blvd & N Quinn St,"['KEY', 'CREDITCARD']",38.896355,-77.078408,11,41,classic
152,162,1st & K St SE,"['KEY', 'CREDITCARD']",38.878854378063295,-77.00572729110718,15,42,classic
153,163,39th & Calvert St NW / Stoddert,"['KEY', 'CREDITCARD']",38.922649,-77.077271,19,42,classic
154,164,1st & Washington Hospital Center NW,"['KEY', 'CREDITCARD']",38.928743,-77.012457,15,42,classic
155,165,Virginia Square Metro / Monroe St & 9th St N,"['KEY', 'CREDITCARD']",38.882788,-77.103148,19,41,classic
156,166,Central Library / Quincy St & 10th St N,"['KEY', 'CREDITCARD']",38.88397,-77.10783,11,41,classic
157,167,Washington Blvd & 10th St N,"['KEY', 'CREDITCARD']",38.884734,-77.093485,15,41,classic
158,168,Jefferson Dr & 14th St SW,"['KEY', 'CREDITCARD']",38.888553,-77.032429,23,42,classic
159,169,Smithsonian-National Mall / Jefferson Dr & 12th St SW,"['KEY', 'CREDITCARD']",38.888767,-77.02858,35,42,classic
160,170,George Mason Dr & Wilson Blvd,"['KEY', 'CREDITCARD']",38.87887,-77.1207,15,41,classic
161,171,6th St & Indiana Ave NW,"['KEY', 'CREDITCARD']",38.894573,-77.01994,19,42,classic
162,172,N Veitch St & Key Blvd,"['KEY', 'CREDITCARD']",38.893237,-77.086063,11,41,classic
163,173,Lee Hwy & N Adams St,"['KEY', 'CREDITCARD']",38.89593,-77.089006,19,41,classic
164,174,15th St & N Scott St,"['KEY', 'CREDITCARD']",38.89054,-77.08095,11,41,classic
165,175,Washington Blvd & 7th St N,"['KEY', 'CREDITCARD']",38.88081,-77.090792,11,41,classic
166,176,Ballston Metro / Stuart St & 9th St N,"['KEY', 'CREDITCARD']",38.881044,-77.111768,23,41,classic
167,177,Fairfax Dr & N Randolph St,"['KEY', 'CREDITCARD']",38.882629,-77.109366,11,41,classic
168,178,Jefferson Memorial,"['KEY', 'CREDITCARD']",38.879819,-77.037413,23,42,classic
169,179,Good Hope Rd & 14th St SE,"['KEY', 'CREDITCARD']",38.866611,-76.985238,15,42,classic
170,180,Glebe Rd & 11th St N,"['KEY', 'CREDITCARD']",38.883921,-77.116817,11,41,classic
171,181,Wilson Blvd & N Quincy St,"['KEY', 'CREDITCARD']",38.880012,-77.107854,15,41,classic
172,182,GMU / Fairfax Dr & Kenmore St,"['KEY', 'CREDITCARD']",38.884616,-77.10108,11,41,classic
173,183,Gallaudet / 8th St & Florida Ave NE,"['KEY', 'CREDITCARD']",38.90509,-76.9941,19,42,classic
174,185,20th & L St NW,"['KEY', 'CREDITCARD']",38.903584,-77.044789,19,42,classic
175,186,12th & L St NW,"['KEY', 'CREDITCARD']",38.903819,-77.0284,19,42,classic
176,187,21st St & Pennsylvania Ave NW,"['KEY', 'CREDITCARD']",38.901539,-77.046564,19,42,classic
177,188,19th & K St NW,"['KEY', 'CREDITCARD']",38.902204,-77.04337,23,42,classic
178,189,Prince St & Union St,"['KEY', 'CREDITCARD']",38.803124,-77.040363,19,40,classic
179,190,Market Square / King St & Royal St,"['KEY', 'CREDITCARD']",38.804718,-77.043363,15,40,classic
180,191,Saint Asaph St & Pendleton  St,"['KEY', 'CREDITCARD']",38.810743,-77.044664,15,40,classic
181,192,King St & Patrick St,"['KEY', 'CREDITCARD']",38.805317,-77.049883,15,40,classic
182,194,Commerce St & Fayette St,"['KEY', 'CREDITCARD']",38.805648,-77.05293,15,40,classic
183,195,Henry St & Pendleton St,"['KEY', 'CREDITCARD']",38.811456,-77.050276,17,40,classic
184,196,Braddock Rd Metro,"['KEY', 'CREDITCARD']",38.814577,-77.052808,29,40,classic
185,197,King St Metro South,"['KEY', 'CREDITCARD']",38.80576284873485,-77.060626745224,23,40,classic
186,198,24th & N St NW,"['KEY', 'CREDITCARD']",38.9066,-77.05152,15,42,classic
187,199,10th & E St NW,"['KEY', 'CREDITCARD']",38.895914,-77.026064,15,42,classic
188,200,22nd & I St NW / Foggy Bottom,"['KEY', 'CREDITCARD']",38.90088,-77.048911,15,42,classic
189,201,Utah St & 11th St N,"['KEY', 'CREDITCARD']",38.883669,-77.113905,11,41,classic
190,202,Barton St & 10th St N,"['KEY', 'CREDITCARD']",38.884961,-77.08777,11,41,classic
191,203,Arlington Blvd & N Queen St,"['KEY', 'CREDITCARD']",38.889365,-77.077294,11,41,classic
192,204,Lincoln Memorial,"['KEY', 'CREDITCARD']",38.888251,-77.049426,25,42,classic
193,206,20th St & Virginia Ave NW,"['KEY', 'CREDITCARD']",38.894722,-77.045128,15,42,classic
194,207,5th St & Massachusetts Ave NW,"['KEY', 'CREDITCARD']",38.90093,-77.018677,19,42,classic
195,208,39th & Veazey St NW,"['KEY', 'CREDITCARD']",38.943837,-77.077078,15,42,classic
196,209,Fessenden St & Wisconsin Ave NW,"['KEY', 'CREDITCARD']",38.954812,-77.082426,15,42,classic
197,210,3rd & M St NE,"['KEY', 'CREDITCARD']",38.905469714943266,-77.0021304488182,23,42,classic
198,211,Columbia Pike & S Courthouse Rd,"['KEY', 'CREDITCARD']",38.863833,-77.080319,15,41,classic
199,212,Wakefield High School,"['KEY', 'CREDITCARD']",38.847129045742605,-77.1125502884388,11,41,classic
200,213,28th St & S Meade St,"['KEY', 'CREDITCARD']",38.846222,-77.069275,15,41,classic
201,214,18th St & Wyoming Ave NW,"['KEY', 'CREDITCARD']",38.918809,-77.041571,23,42,classic
202,215,5th & Kennedy St NW,"['KEY', 'CREDITCARD']",38.956555547721955,-77.0198142528534,15,42,classic
203,216,Georgia Ave & Emerson St NW,"['KEY', 'CREDITCARD']",38.949662,-77.027333,19,42,classic
204,217,14th & Upshur St NW,"['KEY', 'CREDITCARD']",38.942475355602845,-77.03267812728882,19,42,classic
205,218,14th St & Colorado Ave NW,"['KEY', 'CREDITCARD']",38.956432,-77.032947,19,42,classic
206,219,Troy St & 26th St S,"['KEY', 'CREDITCARD']",38.847977,-77.075104,11,41,classic
207,220,Four Mile Run Dr & S Shirlington Rd,"['KEY', 'CREDITCARD']",38.8444,-77.085931,11,41,classic
208,221,Columbia Pike & S Oakland St,"['KEY', 'CREDITCARD']",38.860789,-77.09586,11,41,classic
209,222,Four Mile Run Dr & S Walter Reed Dr,"['KEY', 'CREDITCARD']",38.84736,-77.095431,11,41,classic
210,223,S Arlington Mill Dr & Campbell Ave,"['KEY', 'CREDITCARD']",38.84232,-77.089555,15,41,classic
211,224,Kenmore St & 24th St S,"['KEY', 'CREDITCARD']",38.848454,-77.084918,11,41,classic
212,225,13th St & Eastern Ave,"['KEY', 'CREDITCARD']",38.987,-77.029417,15,44,classic
213,226,Wisconsin Ave & O St NW,"['KEY', 'CREDITCARD']",38.90849,-77.063586,19,42,classic
214,227,Roosevelt Island,"['KEY', 'CREDITCARD']",38.896553,-77.06714,13,41,classic
215,228,Connecticut & Nebraska Ave NW,"['KEY', 'CREDITCARD']",38.955016,-77.069956,23,42,classic
216,229,17th St & Massachusetts Ave NW,"['KEY', 'CREDITCARD']",38.908142,-77.038359,19,42,classic
217,230,15th & Euclid St  NW,"['KEY', 'CREDITCARD']",38.92333,-77.0352,15,42,classic
218,231,8th & East Capitol St NE,"['KEY', 'CREDITCARD']",38.889988,-76.995193,11,42,classic
219,232,New Jersey Ave & R St NW,"['KEY', 'CREDITCARD']",38.912659,-77.017669,15,42,classic
220,233,15th & East Capitol St NE,"['KEY', 'CREDITCARD']",38.889908,-76.983326,11,42,classic
221,234,8th & F St NE,"['KEY', 'CREDITCARD']",38.897274,-76.994749,23,42,classic
222,235,18th St & Rhode Island Ave NE,"['KEY', 'CREDITCARD']",38.927095,-76.978924,15,42,classic
223,236,15th & F St NE,"['KEY', 'CREDITCARD']",38.897195,-76.983575,19,42,classic
224,237,12th & Irving St NE,"['KEY', 'CREDITCARD']",38.928644,-76.990955,15,42,classic
225,239,Alabama & MLK Ave SE,"['KEY', 'CREDITCARD']",38.84322988730829,-76.99937582015991,11,42,classic
226,240,Pleasant St & MLK Ave SE,"['KEY', 'CREDITCARD']",38.863897,-76.990037,11,42,classic
227,241,Neal St & Trinidad Ave NE,"['KEY', 'CREDITCARD']",38.903732,-76.987211,15,42,classic
228,242,12th & U St NW,"['KEY', 'CREDITCARD']",38.916787,-77.028139,31,42,classic
229,243,S George Mason & Four Mile Run Dr,"['KEY', 'CREDITCARD']",38.852248,-77.105022,11,41,classic
230,244,Gravelly Point,"['KEY', 'CREDITCARD']",38.865029,-77.039511,15,41,classic
231,245,Pershing Dr & Wayne St,"['KEY', 'CREDITCARD']",38.880705,-77.08596,11,41,classic
232,246,Columbia Pike & S Orme St,"['KEY', 'CREDITCARD']",38.867262,-77.072315,11,41,classic
233,247,3rd St & Pennsylvania Ave SE,"['KEY', 'CREDITCARD']",38.887378,-77.001955,15,42,classic
234,248,8th & D St NW,"['KEY', 'CREDITCARD']",38.894851,-77.02324,15,42,classic
235,249,3rd & Elm St NW,"['KEY', 'CREDITCARD']",38.917622,-77.01597,15,42,classic
236,250,Rhode Island Ave & V St NE,"['KEY', 'CREDITCARD']",38.918155,-77.004746,19,42,classic
237,251,Constitution Ave & 2nd St NW/DOL,"['KEY', 'CREDITCARD']",38.892275,-77.013917,27,42,classic
238,252,Washington & Independence Ave SW/HHS,"['KEY', 'CREDITCARD']",38.886978,-77.013769,31,42,classic
239,253,Independence Ave & L'Enfant Plaza SW/DOE,"['KEY', 'CREDITCARD']",38.887312,-77.025762,15,42,classic
240,254,Hamlin & 7th St NE,"['KEY', 'CREDITCARD']",38.927497,-76.997194,15,42,classic
241,255,Columbia Pike & S Walter Reed Dr,"['KEY', 'CREDITCARD']",38.862478,-77.086599,12,41,classic
242,256,Arlington Mill Cmty Center / Columbia Pike & S Dinwiddie St,"['KEY', 'CREDITCARD']",38.856319,-77.11153,15,41,classic
243,257,Pershing Dr & N George Mason Dr,"['KEY', 'CREDITCARD']",38.871822,-77.107906,11,41,classic
244,258,Fenton St & New York Ave ,"['KEY', 'CREDITCARD']",38.985404,-77.023082,15,44,classic
245,259,Bethesda Ave & Arlington Rd,"['KEY', 'CREDITCARD']",38.981103,-77.097426,19,44,classic
246,260,Montgomery Ave & Waverly St ,"['KEY', 'CREDITCARD']",38.983838,-77.09221,11,44,classic
247,261,Fallsgrove Blvd & Fallsgrove Dr,"['KEY', 'CREDITCARD']",39.096312,-77.192672,19,43,classic
248,262,Traville Gateway Dr & Gudelsky Dr,"['KEY', 'CREDITCARD']",39.093783,-77.202501,19,43,classic
249,263,Norfolk Ave & Fairmont St,"['KEY', 'CREDITCARD']",38.988562,-77.096539,11,44,classic
250,264,E Montgomery Ave & Maryland Ave,"['KEY', 'CREDITCARD']",39.084125,-77.151291,15,43,classic
251,265,Cordell & Norfolk Ave,"['KEY', 'CREDITCARD']",38.98954,-77.098029,11,44,classic
252,266,Frederick Ave & Horners Ln,"['KEY', 'CREDITCARD']",39.094772,-77.145213,9,43,classic
253,267,Philadelphia & Maple Ave,"['KEY', 'CREDITCARD']",38.98128,-77.011336,15,44,classic
254,268,Maple & Ritchie Ave,"['KEY', 'CREDITCARD']",38.983627,-77.006311,19,44,classic
255,269,Silver Spring Metro / Colesville Rd & Wayne Ave,"['KEY', 'CREDITCARD']",38.99489580319022,-77.02953189611435,15,44,classic
256,270,Montgomery & East Ln,"['KEY', 'CREDITCARD']",38.983525,-77.095367,11,44,classic
257,271,Friendship Hts Metro / Wisconsin Ave & Wisconsin Cir,"['KEY', 'CREDITCARD']",38.961763,-77.085998,19,44,classic
258,272,14th & Belmont St NW,"['KEY', 'CREDITCARD']",38.921074,-77.031887,15,42,classic
259,273,3rd & Tingey St SE,"['KEY', 'CREDITCARD']",38.87501,-77.0024,19,42,classic
260,274,10th & Florida Ave NW,"['KEY', 'CREDITCARD']",38.920387,-77.025672,19,42,classic
261,275,Potomac Ave & 8th St SE,"['KEY', 'CREDITCARD']",38.876737,-76.994468,15,42,classic
262,277,Fallsgrove Dr & W Montgomery Ave,"['KEY', 'CREDITCARD']",39.099376,-77.188014,15,43,classic
263,278,Monroe St & Monroe Pl,"['KEY', 'CREDITCARD']",39.083673,-77.149162,15,43,classic
264,279,Needwood Rd & Eagles Head Ct,"['KEY', 'CREDITCARD']",39.123513,-77.15741,15,43,classic
265,280,East West Hwy & Blair Mill Rd,"['KEY', 'CREDITCARD']",38.990249,-77.02935,15,44,classic
266,282,47th & Elm St,"['KEY', 'CREDITCARD']",38.982456,-77.091991,15,44,classic
267,283,Dennis Ave & Amherst Ave,"['KEY', 'CREDITCARD']",39.02538719623632,-77.04456299543381,15,44,classic
268,284,Montgomery College / W Campus Dr & Mannakee St,"['KEY', 'CREDITCARD']",39.095661,-77.159048,21,43,classic
269,285,Fenton St & Gist Ave,"['KEY', 'CREDITCARD']",38.989724,-77.023854,11,44,classic
270,286,Carroll & Westmoreland Ave,"['KEY', 'CREDITCARD']",38.975,-77.01121,15,44,classic
271,287,Carroll & Ethan Allen Ave,"['KEY', 'CREDITCARD']",38.977933,-77.006472,15,44,classic
272,288,Battery Ln & Trolley Trail,"['KEY', 'CREDITCARD']",38.992375,-77.100104,15,44,classic
273,289,Norfolk & Rugby Ave,"['KEY', 'CREDITCARD']",38.990639,-77.100239,11,44,classic
274,290,Offutt Ln & Chevy Chase Dr,"['KEY', 'CREDITCARD']",38.977093,-77.094589,11,44,classic
275,293,Fleet St & Ritchie Pkwy,"['KEY', 'CREDITCARD']",39.076331,-77.141378,15,43,classic
276,294,Piccard & W Gude Dr,"['KEY', 'CREDITCARD']",39.102212,-77.177091,19,43,classic
277,295,Silver Spring Transit Center - Top Level,"['KEY', 'CREDITCARD']",38.99403485060837,-77.03037142753601,15,44,classic
278,296,Georgia Ave & Spring St,"['KEY', 'CREDITCARD']",38.999388,-77.031555,11,44,classic
279,297,Fenton St & Ellsworth Dr ,"['KEY', 'CREDITCARD']",38.997033,-77.025608,15,44,classic
280,298,King Farm Blvd & Pleasant Dr,"['KEY', 'CREDITCARD']",39.114688,-77.171487,18,43,classic
281,299,King Farm Blvd & Piccard Dr,"['KEY', 'CREDITCARD']",39.110314,-77.182669,15,43,classic
282,301,Calvert St & Woodley Pl NW,"['KEY', 'CREDITCARD']",38.923583,-77.050046,19,42,classic
283,302,New Jersey Ave & N St NW/Dunbar HS,"['KEY', 'CREDITCARD']",38.90733256111448,-77.01536044478416,19,42,classic
284,303,Nannie Helen Burroughs Ave & 49th St NE,"['KEY', 'CREDITCARD']",38.898536,-76.931862,11,42,classic
285,304,Deanwood Rec Center,"['KEY', 'CREDITCARD']",38.908473,-76.933099,15,42,classic
286,305,Hains Point/Buckeye & Ohio Dr SW,"['KEY', 'CREDITCARD']",38.878433,-77.03023,17,42,classic
287,306,Arlington Blvd & Fillmore St,"['KEY', 'CREDITCARD']",38.873755,-77.089233,11,41,classic
288,307,Eads St & 12th St S,"['KEY', 'CREDITCARD']",38.862753,-77.05428,17,41,classic
289,308,Old Georgetown Rd & Southwick St,"['KEY', 'CREDITCARD']",38.999634,-77.109647,19,44,classic
290,309,Friendship Blvd & Willard Ave,"['KEY', 'CREDITCARD']",38.96115,-77.088659,19,44,classic
291,310,North Capitol St & G Pl NE,"['KEY', 'CREDITCARD']",38.899703,-77.008911,19,42,classic
292,311,31st St & S Woodrow St,"['KEY', 'CREDITCARD']",38.837666,-77.09482,11,41,classic
293,312,Washington Blvd & Walter Reed Dr ,"['KEY', 'CREDITCARD']",38.873219,-77.082104,15,41,classic
294,313,TJ Cmty Ctr / 2nd St & S Old Glebe Rd,"['KEY', 'CREDITCARD']",38.869418,-77.095596,15,41,classic
295,314,Connecticut Ave & Tilden St NW,"['KEY', 'CREDITCARD']",38.94113915653008,-77.061977237463,15,42,classic
296,315,Medical Center Dr & Key West Ave,"['KEY', 'CREDITCARD']",39.103091,-77.196442,15,43,classic
297,316,Shady Grove Hospital,"['KEY', 'CREDITCARD']",39.097636,-77.196636,19,43,classic
298,317,Veterans Pl & Pershing Dr ,"['KEY', 'CREDITCARD']",38.997445,-77.023894,11,44,classic
299,318,Rockville Metro East,"['KEY', 'CREDITCARD']",39.085394,-77.145803,13,43,classic
300,319,1st & H St NW,"['KEY', 'CREDITCARD']",38.900358,-77.012108,15,42,classic
301,320,Fort Totten Metro,"['KEY', 'CREDITCARD']",38.952369,-77.002721,19,42,classic
302,321,Takoma Metro,"['KEY', 'CREDITCARD']",38.975219,-77.016855,19,42,classic
303,322,Rhode Island Ave Metro,"['KEY', 'CREDITCARD']",38.920682,-76.995876,19,42,classic
304,323,Rolfe St & 9th St S,"['KEY', 'CREDITCARD']",38.866471,-77.076131,11,41,classic
305,324,Shirlington Transit Center / Quincy St & Randolph St,"['KEY', 'CREDITCARD']",38.839912,-77.087083,15,41,classic
306,325,Shady Grove Metro West,"['KEY', 'CREDITCARD']",39.119765,-77.166093,19,43,classic
307,326,River Rd & Landy Ln,"['KEY', 'CREDITCARD']",38.964992,-77.103381,19,44,classic
308,327,Rockville Metro West,"['KEY', 'CREDITCARD']",39.084379,-77.146866,19,43,classic
309,328,Bethesda Metro / Wisconsin Ave & Old Georgetown Rd,"['KEY', 'CREDITCARD']",38.984691,-77.094537,12,44,classic
310,329,Iwo Jima Memorial / Meade & 14th St N,"['KEY', 'CREDITCARD']",38.88992,-77.071301,19,41,classic
311,330,34th & Water St NW,"['KEY', 'CREDITCARD']",38.903662690050474,-77.0676684380669,19,42,classic
312,331,Duke St & John Carlyle St,"['KEY', 'CREDITCARD']",38.804378,-77.060866,15,40,classic
313,332,Lee Hwy & N Cleveland St,"['KEY', 'CREDITCARD']",38.894941,-77.09169,15,41,classic
314,333,Arlington Blvd & S George Mason Dr,"['KEY', 'CREDITCARD']",38.869442,-77.104503,15,41,classic
315,334,10th & G St NW,"['KEY', 'CREDITCARD']",38.89824328774852,-77.02623546123505,23,42,classic
316,335,Lee Hwy & N Scott St,"['KEY', 'CREDITCARD']",38.897612,-77.080851,15,41,classic
317,336,New Hampshire Ave & 24th St NW,"['KEY', 'CREDITCARD']",38.901755,-77.051084,19,42,classic
318,337,Eisenhower Ave & Mill Race Ln,"['KEY', 'CREDITCARD']",38.801111,-77.068952,15,40,classic
319,338,Potomac Greens Dr & Slaters Ln,"['KEY', 'CREDITCARD']",38.82175,-77.047494,11,40,classic
320,339,Ballenger Ave & Dulaney St,"['KEY', 'CREDITCARD']",38.802677,-77.063562,19,40,classic
321,340,Mount Vernon Ave & E Nelson Ave,"['KEY', 'CREDITCARD']",38.820064,-77.057619,11,40,classic
322,341,Mount Vernon Ave & E Del Ray Ave,"['KEY', 'CREDITCARD']",38.82595,-77.058541,15,40,classic
323,342,Monroe Ave & Leslie Ave,"['KEY', 'CREDITCARD']",38.820932,-77.053096,15,40,classic
324,343,Mount Vernon Ave & Kennedy St,"['KEY', 'CREDITCARD']",38.833077,-77.059821,15,40,classic
325,344,Court House Metro / 15th St & N Uhle St,"['KEY', 'CREDITCARD']",38.890612,-77.084801,21,41,classic
326,345,WAU / Flower Ave & Division St,"['KEY', 'CREDITCARD']",38.986743,-77.000035,15,44,classic
327,346,Long Bridge Park / Long Bridge Dr & 6th St S,"['KEY', 'CREDITCARD']",38.865553,-77.05003,15,41,classic
328,347,Connecticut Ave & McKinley St NW,"['KEY', 'CREDITCARD']",38.96454350924588,-77.07513481378555,19,42,classic
329,348,15th & L St NW,"['KEY', 'CREDITCARD']",38.90366,-77.034846,23,42,classic
330,349,17th & G St NW,"['KEY', 'CREDITCARD']",38.89829964921176,-77.03973233699799,31,42,classic
331,350,Spring St & 2nd Ave,"['KEY', 'CREDITCARD']",38.997653,-77.034499,15,44,classic
332,351,18th & R St NW,"['KEY', 'CREDITCARD']",38.912648,-77.041834,19,42,classic
333,352,Joyce St & 16th St S,"['KEY', 'CREDITCARD']",38.859254,-77.063275,15,41,classic
334,353,Union Market,"['KEY', 'CREDITCARD']",38.907908,-76.99707,23,42,classic
335,354,Lee Hwy & N Monroe St,"['KEY', 'CREDITCARD']",38.896456,-77.104562,15,41,classic
336,355,21st St & N Pierce St,"['KEY', 'CREDITCARD']",38.898984,-77.078317,15,41,classic
337,356,Lee Hwy & N Kirkwood Rd,"['KEY', 'CREDITCARD']",38.895377,-77.09713,15,41,classic
338,357,19th & G St NW,"['KEY', 'CREDITCARD']",38.898412,-77.043182,23,42,classic
339,358,2nd St & Seaton Pl NE,"['KEY', 'CREDITCARD']",38.914751108831155,-77.00356006622314,19,42,classic
340,359,Wilson Blvd & N Illinois St ,"['KEY', 'CREDITCARD']",38.876528,-77.12712,15,41,classic
341,364,Army Navy Dr & S Nash St,"['KEY', 'CREDITCARD']",38.86215024521491,-77.06812083721161,11,41,classic
342,365,31st & Water St NW,"['KEY', 'CREDITCARD']",38.902814,-77.061043,19,42,classic
343,367,11th & S St NW,"['KEY', 'CREDITCARD']",38.913761,-77.027025,23,42,classic
344,368,Walter Reed Dr & 8th St S,"['KEY', 'CREDITCARD']",38.86612,-77.08787,15,41,classic
345,369,2nd & G St NE,"['KEY', 'CREDITCARD']",38.89967,-77.003666,23,42,classic
346,370,8th & O St NW,"['KEY', 'CREDITCARD']",38.90864,-77.02277,19,42,classic
347,371,Georgia & Missouri Ave NW,"['KEY', 'CREDITCARD']",38.961339,-77.027855,19,42,classic
348,373,Oklahoma Ave & D St NE,"['KEY', 'CREDITCARD']",38.894474,-76.974828,19,42,classic
349,374,Maryland Ave & E St NE,"['KEY', 'CREDITCARD']",38.896134,-76.9929,19,42,classic
350,375,New York Ave & Hecht Ave NE,"['KEY', 'CREDITCARD']",38.915604,-76.983683,23,42,classic
351,376,Yuma St & Tenley Circle NW,"['KEY', 'CREDITCARD']",38.946182,-77.08059,19,42,classic
352,377,Connecticut Ave & Chevy Chase Lake Dr,"['KEY', 'CREDITCARD']",38.994113,-77.076986,15,44,classic
353,378,Key West Ave & Siesta Key Way,"['KEY', 'CREDITCARD']",39.105295,-77.194774,15,43,classic
354,379,Lee Hwy & N Woodstock St,"['KEY', 'CREDITCARD']",38.898301,-77.118009,19,41,classic
355,380,Saint Asaph St & Madison St,"['KEY', 'CREDITCARD']",38.812718,-77.044097,15,40,classic
356,381,King St Metro North / Cameron St,"['KEY', 'CREDITCARD']",38.80704,-77.059817,15,40,classic
357,382,Madison St & N Henry St,"['KEY', 'CREDITCARD']",38.813485,-77.049468,15,40,classic
358,383,Medical Center Metro ,"['KEY', 'CREDITCARD']",38.999378,-77.097882,19,44,classic
359,384,Washington Blvd & N Frederick St,"['KEY', 'CREDITCARD']",38.884829,-77.127671,11,41,classic
360,385,Wisconsin Ave & Ingomar St NW,"['KEY', 'CREDITCARD']",38.958267,-77.084636,19,42,classic
361,386,16th & Irving St NW,"['KEY', 'CREDITCARD']",38.928893,-77.03625,19,42,classic
362,387,16th & R St NW,"['KEY', 'CREDITCARD']",38.912652,-77.036278,19,42,classic
363,388,Lyttonsville Rd & Lyttonsville Pl,"['KEY', 'CREDITCARD']",38.999679,-77.051168,15,44,classic
364,389,Woodmont Ave & Strathmore St,"['KEY', 'CREDITCARD']",38.979875,-77.093522,11,44,classic
365,390,14th & L St NW,"['KEY', 'CREDITCARD']",38.903658,-77.031737,19,42,classic
366,391,1st & O St NW,"['KEY', 'CREDITCARD']",38.908643,-77.012365,15,42,classic
367,392,South Capitol & Atlantic St SW,"['KEY', 'CREDITCARD']",38.831516,-77.008133,19,42,classic
368,393,18th & C St NW,"['KEY', 'CREDITCARD']",38.893511,-77.041544,19,42,classic
369,394,22nd & P ST NW,"['KEY', 'CREDITCARD']",38.909394,-77.048728,19,42,classic
370,395,East West Hwy & 16th St,"['KEY', 'CREDITCARD']",38.995681,-77.038721,19,44,classic
371,396,Royal St & Wilkes St,"['KEY', 'CREDITCARD']",38.799267,-77.0447,15,40,classic
372,397,14th & Girard St NW,"['KEY', 'CREDITCARD']",38.925284,-77.032375,23,42,classic
373,398,Potomac Ave & Main Line Blvd,"['KEY', 'CREDITCARD']",38.822738,-77.049265,19,40,classic
374,399,11th & O St NW,"['KEY', 'CREDITCARD']",38.90843,-77.02714,19,42,classic
375,400,10th St & L'Enfant Plaza SW,"['KEY', 'CREDITCARD']",38.88432272414662,-77.02601015567778,23,42,classic
376,401,Connecticut Ave & Yuma St NW,"['KEY', 'CREDITCARD']",38.947156,-77.065115,19,42,classic
377,402,2nd St & Massachusetts Ave NE,"['KEY', 'CREDITCARD']",38.894972,-77.003135,23,42,classic
378,403,Radford St & Osage St,"['KEY', 'CREDITCARD']",38.828437,-77.086031,23,40,classic
379,404,East Falls Church Metro / Sycamore St & 19th St N,"['KEY', 'CREDITCARD']",38.88532071975074,-77.15642720460892,19,41,classic
380,405,Kennebec St & 11th St N,"['KEY', 'CREDITCARD']",38.880992,-77.135271,15,41,classic
381,406,Commonwealth Ave & Oak St,"['KEY', 'CREDITCARD']",38.812711,-77.061715,19,40,classic
382,407,Commonwealth Ave & E Monroe Ave,"['KEY', 'CREDITCARD']",38.82005823354218,-77.06282079219818,15,40,classic
383,408,4th St & Madison Dr NW,"['KEY', 'CREDITCARD']",38.890493,-77.017253,31,42,classic
384,409,Henry Bacon Dr & Lincoln Memorial Circle NW,"['KEY', 'CREDITCARD']",38.890544,-77.049379,19,42,classic
385,410,17th St & Independence Ave SW,"['KEY', 'CREDITCARD']",38.888097,-77.038325,19,42,classic
386,411,Franklin St & S Washington St,"['KEY', 'CREDITCARD']",38.798133,-77.0487,19,40,classic
387,412,Mount Vernon Ave & Four Mile Run Park,"['KEY', 'CREDITCARD']",38.843422,-77.064016,15,40,classic
388,413,4th St & K St NW,"['KEY', 'CREDITCARD']",38.90240556584194,-77.01600551605225,23,42,classic
389,414,Mount Vernon Ave & Bruce St,"['KEY', 'CREDITCARD']",38.841291,-77.063093,15,40,classic
390,415,Lee Center,"['KEY', 'CREDITCARD']",38.797557,-77.053766,15,40,classic
391,416,Powhatan St & Bashford Ln,"['KEY', 'CREDITCARD']",38.818748,-77.047783,15,40,classic
392,417,Potomac Ave & Swann Ave,"['KEY', 'CREDITCARD']",38.829545,-77.047844,19,40,classic
393,418,14th & Irving St NW,"['KEY', 'CREDITCARD']",38.928552,-77.032224,31,42,classic
394,420,Wisconsin Ave & Brandywine St NW,"['KEY', 'CREDITCARD']",38.949813,-77.080217,25,42,classic
395,421,24th & R St NE / National Arboretum,"['KEY', 'CREDITCARD']",38.91263,-76.971923,19,42,classic
396,422,Division Ave & Foote St NE,"['KEY', 'CREDITCARD']",38.897407,-76.925907,15,42,classic
397,423,16th & Q St SE / Anacostia HS,"['KEY', 'CREDITCARD']",38.870695,-76.982359,23,42,classic
398,424,Spring Hill Metro,"['KEY', 'CREDITCARD']",38.929261,-77.240654,15,104,classic
399,425,Westpark Dr & Leesburg Pike,"['KEY', 'CREDITCARD']",38.92403,-77.235955,11,104,classic
400,427,Tysons One Pl & Chain Bridge Rd,"['KEY', 'CREDITCARD']",38.919475,-77.221179,11,104,classic
401,428,Tysons Corner Station,"['KEY', 'CREDITCARD']",38.920939,-77.222115,11,104,classic
402,429,Westpark & Jones Branch Dr,"['KEY', 'CREDITCARD']",38.924437,-77.217664,11,104,classic
403,430,Jones Branch & Westbranch Dr,"['KEY', 'CREDITCARD']",38.931911,-77.219261,13,104,classic
404,431,Westpark & Park Run Dr,"['KEY', 'CREDITCARD']",38.928919,-77.225394,11,104,classic
405,432,Tysons West Transit Center,"['KEY', 'CREDITCARD']",38.932636,-77.231825,11,104,classic
406,433,North Shore & Cameron Crescent Dr/Crescent Apartments,"['KEY', 'CREDITCARD']",38.970046,-77.338686,11,104,classic
407,434,Town Center Pkwy & Bowman Towne Dr,"['KEY', 'CREDITCARD']",38.962524,-77.361902,15,104,classic
408,435,Reston Regional Library,"['KEY', 'CREDITCARD']",38.962095,-77.358815,15,104,classic
409,436,New Dominion Pkwy & Fountain Dr,"['KEY', 'CREDITCARD']",38.960574,-77.356324,15,104,classic
410,437,Sunset Hills & Old Reston Ave,"['KEY', 'CREDITCARD']",38.955079,-77.351649,15,104,classic
411,438,Reston Town Center Transit Station,"['KEY', 'CREDITCARD']",38.957037,-77.359718,17,104,classic
412,439,1st & D St SE,"['KEY', 'CREDITCARD']",38.884916,-77.005965,19,42,classic
413,440,Wiehle Ave & Reston Station Blvd,"['KEY', 'CREDITCARD']",38.946607921214984,-77.3393914103508,19,104,classic
414,441,Library St & Freedom Dr,"['KEY', 'CREDITCARD']",38.959633,-77.358741,19,104,classic
415,442,Sunset Hills Rd & Discovery Square,"['KEY', 'CREDITCARD']",38.95534,-77.357611,15,104,classic
416,443,22nd St & Constitution Ave NW,"['KEY', 'CREDITCARD']",38.892441,-77.048947,23,42,classic
417,444,61st St & Banks Pl NE,"['KEY', 'CREDITCARD']",38.891805,-76.913563,19,42,classic
418,445,Temporary Rd & Old Reston Ave,"['KEY', 'CREDITCARD']",38.960084,-77.353414,15,104,classic
419,446,Reston YMCA,"['KEY', 'CREDITCARD']",38.955314,-77.368416,15,104,classic
420,447,Sunset Hills Rd & Isaac Newton Square,"['KEY', 'CREDITCARD']",38.951443,-77.340377,11,104,classic
421,448,N Lynn St & Fairfax Dr,"['KEY', 'CREDITCARD']",38.89386,-77.070862,15,41,classic
422,449,Georgia Ave & Piney Branch Rd NW,"['KEY', 'CREDITCARD']",38.967505,-77.027976,15,42,classic
423,450,Greensboro & International Dr,"['KEY', 'CREDITCARD']",38.923083,-77.227417,11,104,classic
424,451,Madison St & Fairfax St,"['KEY', 'CREDITCARD']",38.812351,-77.040691,15,40,classic
425,452,Sligo Ave & Carroll Ln,"['KEY', 'CREDITCARD']",38.990874,-77.016311,15,44,classic
426,453,15th & W St NW,"['KEY', 'CREDITCARD']",38.919086,-77.034502,19,42,classic
427,454,12th St & Pennsylvania Ave SE,"['KEY', 'CREDITCARD']",38.882489,-76.990121,19,42,classic
428,455,3rd St & Riggs Rd NE,"['KEY', 'CREDITCARD']",38.957463,-77.002239,15,42,classic
429,456,Carlin Springs Rd & N Thomas St,"['KEY', 'CREDITCARD']",38.876695,-77.112982,15,41,classic
430,457,Towers Crescent Dr & Tysons One Pl,"['KEY', 'CREDITCARD']",38.915246,-77.220157,11,104,classic
431,458,6th & K St NE,"['KEY', 'CREDITCARD']",38.90293157359119,-76.99840486049652,19,42,classic
432,459,Pooks Hill Rd & Linden Ave,"['KEY', 'CREDITCARD']",39.014716,-77.107143,15,44,classic
433,460,Takoma Park Rec Center,"['KEY', 'CREDITCARD']",38.98265,-76.988311,15,44,classic
434,461,New Hampshire & Kirklynn Ave,"['KEY', 'CREDITCARD']",38.988101,-76.988422,15,44,classic
435,462,Wheaton Metro / Georgia Ave & Reedie Dr,"['KEY', 'CREDITCARD']",39.038341,-77.051023,11,44,classic
436,463,Amherst Ave & Elkins St,"['KEY', 'CREDITCARD']",39.044887,-77.047788,15,44,classic
437,464,Amherst Ave & Prichard Rd,"['KEY', 'CREDITCARD']",39.035965,-77.048395,15,44,classic
438,465,Grandview & Blueridge Ave,"['KEY', 'CREDITCARD']",39.043272,-77.053085,15,44,classic
439,466,Windham Ln & Amherst Ave,"['KEY', 'CREDITCARD']",39.032029,-77.04735,15,44,classic
440,467,North Shore Dr & Village Rd,"['KEY', 'CREDITCARD']",38.970412,-77.340787,11,104,classic
441,468,Town Center Pkwy & Sunset Hills Rd,"['KEY', 'CREDITCARD']",38.955170598044894,-77.3630940914154,11,104,classic
442,469,3rd & Underwood St NW,"['KEY', 'CREDITCARD']",38.968834,-77.016258,19,42,classic
443,470,18th & Monroe St NE,"['KEY', 'CREDITCARD']",38.93293,-76.979517,19,42,classic
444,471,7th & E St SW,"['KEY', 'CREDITCARD']",38.88345,-77.021741,19,42,classic
445,472,Shady Grove Metro East,"['KEY', 'CREDITCARD']",39.121327,-77.164969,19,43,classic
446,473,Potomac & M St NW,"['KEY', 'CREDITCARD']",38.905368,-77.065149,19,42,classic
447,474,Columbia & Ontario Rd NW,"['KEY', 'CREDITCARD']",38.924088,-77.040787,23,42,classic
448,475,Washington-Liberty High School / N Stafford St & Generals Way,"['KEY', 'CREDITCARD']",38.888282,-77.111066,15,41,classic
449,476,Westover Library / Washington Blvd & N McKinley Rd,"['KEY', 'CREDITCARD']",38.886048,-77.142317,15,41,classic
450,477,Columbia Pike & S Taylor St,"['KEY', 'CREDITCARD']",38.858524,-77.103728,15,41,classic
451,478,Columbus Ave & Tribeca St,"['KEY', 'CREDITCARD']",39.12582811177034,-77.16705948114395,11,43,classic
452,479,Columbus Ave & Gramercy Blvd,"['KEY', 'CREDITCARD']",39.12333,-77.16486,11,43,classic
453,480,Reston Pkwy & Spectrum Dr,"['KEY', 'CREDITCARD']",38.964207741006206,-77.35428035259247,15,104,classic
454,481,Key West Ave & Great Seneca Hwy,"['KEY', 'CREDITCARD']",39.105642,-77.20386,11,43,classic
455,482,Virginia Ave & 25th St NW,"['KEY', 'CREDITCARD']",38.8995,-77.054155,19,42,classic
456,483,15th & M St NW,"['KEY', 'CREDITCARD']",38.905424,-77.034674,19,42,classic
457,484,11th & Girard St NW,"['KEY', 'CREDITCARD']",38.925636,-77.027112,19,42,classic
458,485,Connecticut Ave & R St NW,"['KEY', 'CREDITCARD']",38.912644,-77.04564,19,42,classic
459,486,Wilson Blvd & N Troy St,"['KEY', 'CREDITCARD']",38.892556,-77.082089,15,41,classic
460,487,American University East Campus,"['KEY', 'CREDITCARD']",38.936298,-77.087128,19,42,classic
461,488,15th St & Constitution Ave NW,"['KEY', 'CREDITCARD']",38.892244,-77.033234,19,42,classic
462,490,23rd & M St NW,"['KEY', 'CREDITCARD']",38.905303,-77.050264,19,42,classic
463,491,Corporate Blvd & Omega Dr,"['KEY', 'CREDITCARD']",39.106971,-77.192645,15,43,classic
464,492,Key West Ave & Diamondback Dr,"['KEY', 'CREDITCARD']",39.106152,-77.202354,11,43,classic
465,493,Alabama Ave & Stanton Rd SE / Shops at Park Village,"['KEY', 'CREDITCARD']",38.84627,-76.98185,19,42,classic
466,494,Mississippi Ave & 19th St SE / THEARC,"['KEY', 'CREDITCARD']",38.84377,-76.97557,19,42,classic
467,495,19th & Savannah St SE,"['KEY', 'CREDITCARD']",38.84623,-76.97703,11,42,classic
468,496,4th St & Mississippi Ave SE,"['KEY', 'CREDITCARD']",38.836,-77.0009,19,42,classic
469,497,1st & S Capitol St SE / Oxon Run Trail,"['KEY', 'CREDITCARD']",38.824481,-77.005497,19,42,classic
470,498,Livingston Rd & 3rd St SE,"['KEY', 'CREDITCARD']",38.82373,-77.00223,15,42,classic
471,499,Joliet St & MLK Ave SW/Bald Eagle Rec Ctr,"['KEY', 'CREDITCARD']",38.81909,-77.01033,19,42,classic
472,500,37th & Ely Pl SE,"['KEY', 'CREDITCARD']",38.883011,-76.949709,15,42,classic
473,501,15th St & Pennsylvania Ave NW,"['KEY', 'CREDITCARD']",38.89646474748647,-77.0333808660507,19,42,classic
474,505,Maine Ave & 9th St SW,"['KEY', 'CREDITCARD']",38.88044,-77.025236,15,42,classic
475,506,Lincoln Rd & Seaton Pl NE/Harry Thomas Rec Center,"['KEY', 'CREDITCARD']",38.915,-77.0078,19,42,classic
476,507,Blueridge Ave & Elkin St,"['KEY', 'CREDITCARD']",39.04313,-77.05006,15,44,classic
477,508,Georgia Ave & Kennedy St NW,"['KEY', 'CREDITCARD']",38.95674,-77.02791,19,42,classic
478,509,7th St & Massachusetts Ave NE,"['KEY', 'CREDITCARD']",38.89222,-76.99602,19,42,classic
479,510,Anacostia Park,"['KEY', 'CREDITCARD']",38.87335,-76.9834,19,42,classic
480,511,Twinbrook Metro,"['KEY', 'CREDITCARD']",39.062041,-77.120776,14,43,classic
481,512,White Flint Metro,"['KEY', 'CREDITCARD']",39.04753,-77.11287,25,43,classic
482,513,Citadel Ave & McGrath Blvd,"['KEY', 'CREDITCARD']",39.049,-77.10933,15,43,classic
483,514,Rockville Pike & Old Georgetown Rd,"['KEY', 'CREDITCARD']",39.049765,-77.11368,15,43,classic
484,515,Woodglen Dr & Executive Blvd,"['KEY', 'CREDITCARD']",39.04317,-77.1135,16,43,classic
485,516,Executive Blvd & E Jefferson St,"['KEY', 'CREDITCARD']",39.04873,-77.1257,15,43,classic
486,517,Fishers Ln & Rock Creek Mill Rd,"['KEY', 'CREDITCARD']",39.0629,-77.113454,15,43,classic
487,518,Congressional Ln & E Jefferson St,"['KEY', 'CREDITCARD']",39.06219,-77.129235,15,43,classic
488,519,Garland Ave & Walden Rd,"['KEY', 'CREDITCARD']",39.00048,-77.00077,15,44,classic
489,520,Greensboro & Pinnacle Dr,"['KEY', 'CREDITCARD']",38.92245,-77.23034,13,104,classic
490,521,1301 McCormick Dr / Wayne K. Curry Admin Bldg,"['KEY', 'CREDITCARD']",38.908391,-76.843263,15,133,classic
491,522,Largo Town Center Metro,"['KEY', 'CREDITCARD']",38.899811,-76.844604,17,133,classic
492,523,Baltimore Ave & Van Buren St / Riverdale Park Station,"['KEY', 'CREDITCARD']",38.969581,-76.937349,17,133,classic
493,524,Baltimore Ave & Jefferson St,"['KEY', 'CREDITCARD']",38.95548,-76.940133,15,133,classic
494,525,Perry & 35th St,"['KEY', 'CREDITCARD']",38.936213,-76.960054,15,133,classic
495,526,Rockville Pike & Meeting St,"['KEY', 'CREDITCARD']",39.050539,-77.115212,15,43,classic
496,527,Potomac Ave & Half St SW,"['KEY', 'CREDITCARD']",38.870201045557025,-77.01083689928055,23,42,classic
497,529,Crystal Dr & Potomac Ave,"['KEY', 'CREDITCARD']",38.848304,-77.05122,11,41,classic
498,530,Largo Rd & Campus Way / Prince Georges's Comm Col,"['KEY', 'CREDITCARD']",38.88994,-76.825535,15,133,classic
499,531,Stanton Square SE,"['KEY', 'CREDITCARD']",38.855004,-76.984512,19,42,classic
500,532,14th & Newton St NW,"['KEY', 'CREDITCARD']",38.931991,-77.032956,19,42,classic
501,533,48th Pl & MacArthur Blvd NW,"['KEY', 'CREDITCARD']",38.917304,-77.09629,14,42,classic
502,534,14th & Luzon St NW,"['KEY', 'CREDITCARD']",38.969489,-77.033509,19,42,classic
503,535,1st & M St SE,"['KEY', 'CREDITCARD']",38.876893,-77.006072,19,42,classic
504,536,Fleet St & Waterfront St,"['KEY', 'CREDITCARD']",38.782633,-77.016059,15,133,classic
505,537,Oxon Hill Park & Ride,"['KEY', 'CREDITCARD']",38.798749,-77.00103,15,133,classic
506,538,11th & Park Rd NW,"['KEY', 'CREDITCARD']",38.93132185874559,-77.02824711799622,19,42,classic
507,539,4th & M St SE,"['KEY', 'CREDITCARD']",38.876751,-77.000736,19,42,classic
508,540,Kansas Ave & Sherman Cr NW,"['KEY', 'CREDITCARD']",38.948057,-77.021467,19,42,classic
509,541,Campus Commons,"['KEY', 'CREDITCARD']",38.944707,-77.335425,11,104,classic
510,542,Park Run & Onyx Dr,"['KEY', 'CREDITCARD']",38.92755,-77.226644,11,104,classic
511,543,7th & K St NW,"['KEY', 'CREDITCARD']",38.902674,-77.021392,19,42,classic
512,544,King Greenleaf Rec Center,"['KEY', 'CREDITCARD']",38.876211,-77.012443,19,42,classic
513,545,Montello Ave & Holbrook Terr NE,"['KEY', 'CREDITCARD']",38.907444,-76.986813,19,42,classic
514,546,New Jersey Ave & F St NW,"['KEY', 'CREDITCARD']",38.897108,-77.011616,33,42,classic
515,547,Maryland Ave & 17th St NE,"['KEY', 'CREDITCARD']",38.901935,-76.978627,19,42,classic
516,548,Massachusetts Ave & 6th St NE,"['KEY', 'CREDITCARD']",38.892934,-76.998273,19,42,classic
517,549,Woodley Park Metro / Calvert St & Connecticut Ave NW,"['KEY', 'CREDITCARD']",38.923389,-77.051833,23,42,classic
518,550,McLean Metro,"['KEY', 'CREDITCARD']",38.92400207520182,-77.20812678337097,19,104,classic
519,551,Trinidad Rec Center,"['KEY', 'CREDITCARD']",38.906299,-76.983221,19,42,classic
520,552,Rosedale Rec Center,"['KEY', 'CREDITCARD']",38.897808,-76.979634,19,42,classic
521,553,11th & C St SE,"['KEY', 'CREDITCARD']",38.885908,-76.991476,19,42,classic
522,554,New Hampshire & Gallatin St NW,"['KEY', 'CREDITCARD']",38.951596,-77.012808,19,42,classic
523,555,United Medical Center,"['KEY', 'CREDITCARD']",38.835737,-76.983144,19,42,classic
524,556,18th & New Hampshire Ave NW,"['KEY', 'CREDITCARD']",38.911268,-77.041829,19,42,classic
525,560,Dunn Loring Metro,"['KEY', 'CREDITCARD']",38.8828,-77.2283,19,104,classic
526,561,Oglethorpe St & 42nd Ave,"['KEY', 'CREDITCARD']",38.959361,-76.946361,15,133,classic
527,562,Southern Ave Metro,"['KEY', 'CREDITCARD']",38.840107,-76.9753,15,133,classic
528,563,Queens Chapel & Hamilton St,"['KEY', 'CREDITCARD']",38.9546,-76.9595,15,133,classic
529,564,Northwestern High School,"['KEY', 'CREDITCARD']",38.975505,-76.952199,15,133,classic
530,565,New Hampshire Ave & East-West Hwy,"['KEY', 'CREDITCARD']",38.974205,-76.995227,15,133,classic
531,566,Rhode Island Ave & 39th St / Brentwood Arts Exchange,"['KEY', 'CREDITCARD']",38.939271,-76.955047,15,133,classic
532,567,Riggs Rd & East West Hwy,"['KEY', 'CREDITCARD']",38.9725,-76.9807,17,133,classic
533,568,Tanger Outlets,"['KEY', 'CREDITCARD']",38.7968,-77.0026,15,133,classic
534,569,Chillum Rd & Riggs Rd / Riggs Plaza,"['KEY', 'CREDITCARD']",38.961737,-76.995922,15,133,classic
535,570,Hyattsville Library / Adelphi Rd & Toledo Rd,"['KEY', 'CREDITCARD']",38.9698,-76.9493,15,133,classic
536,571,George Mason High School / Haycock Rd & Leesburg Pike,"['KEY', 'CREDITCARD']",38.895172,-77.190275,12,152,classic
537,572,State Theatre / Park Pl & N Washington St,"['KEY', 'CREDITCARD']",38.882746,-77.170032,12,152,classic
538,573,N Oak St & W Broad St,"['KEY', 'CREDITCARD']",38.88837,-77.179832,12,152,classic
539,574,Pennsylvania Ave & Park Ave,"['KEY', 'CREDITCARD']",38.887403,-77.176992,12,152,classic
540,575,E Fairfax St & S Washington St,"['KEY', 'CREDITCARD']",38.880612,-77.171891,12,152,classic
541,576,N Roosevelt St & Roosevelt Blvd,"['KEY', 'CREDITCARD']",38.878085,-77.153953,12,152,classic
542,577,W Broad St & Little Falls St,"['KEY', 'CREDITCARD']",38.883601,-77.173438,12,152,classic
543,578,S Maple Ave & S Washington St,"['KEY', 'CREDITCARD']",38.87972,-77.178408,12,152,classic
544,579,Falls Church City Hall / Park Ave & Little Falls St,"['KEY', 'CREDITCARD']",38.885434,-77.173605,12,152,classic
545,580,W Columbia St & N Washington St,"['KEY', 'CREDITCARD']",38.885621,-77.166917,12,152,classic
546,581,West Falls Church Metro,"['KEY', 'CREDITCARD']",38.9001,-77.1887,19,104,classic
547,582,Jones Branch Drive & Scotts Crossing Rd,"['KEY', 'CREDITCARD']",38.928502,-77.215624,11,104,classic
548,583,Georgia Ave & Morton St NW,"['KEY', 'CREDITCARD']",38.932128,-77.0235,19,42,classic
549,584,Merrilee Dr & Lauren Elizabeth Lane,"['KEY', 'CREDITCARD']",38.879355,-77.230681,11,104,classic
550,585,Merrifield Cinema & Merrifield Town Center,"['KEY', 'CREDITCARD']",38.870093,-77.22997,11,104,classic
551,586,Rhode Island & Montana Ave NE,"['KEY', 'CREDITCARD']",38.9243,-76.9859,19,42,classic
552,587,7th & S St NW,"['KEY', 'CREDITCARD']",38.9142043187298,-77.0221745967865,19,42,classic
553,588,North Capitol & R St NE,"['KEY', 'CREDITCARD']",38.912524,-77.008798,15,42,classic
554,589,17th & Upshur St NW,"['KEY', 'CREDITCARD']",38.942146,-77.038684,19,42,classic
555,590,Grant Circle,"['KEY', 'CREDITCARD']",38.942024743273045,-77.01822102069855,19,42,classic
556,591,14th & Otis Pl NW,"['KEY', 'CREDITCARD']",38.934405,-77.032687,19,42,classic
557,592,John McCormack Rd NE,"['KEY', 'CREDITCARD']",38.938889,-76.997226,19,42,classic
558,593,West Hyattsville Metro,"['KEY', 'CREDITCARD']",38.955349,-76.968084,17,133,classic
559,594,Capitol Heights Metro,"['KEY', 'CREDITCARD']",38.888524,-76.913188,19,133,classic
560,595,Prince George's Plaza Metro,"['KEY', 'CREDITCARD']",38.965742,-76.954803,17,133,classic
561,596,Riverdale Park Town Center,"['KEY', 'CREDITCARD']",38.962119,-76.935578,17,133,classic
562,597,The Mall at Prince Georges,"['KEY', 'CREDITCARD']",38.968842,-76.954171,17,133,classic
563,598,Wheaton Library & Community Rec Center,"['KEY', 'CREDITCARD']",39.0473228,-77.0510969,11,44,classic
564,599,Edgewood Rec Center,"['KEY', 'CREDITCARD']",38.924144,-77.002098,15,42,classic
565,601,8th & K St NE,"['KEY', 'CREDITCARD']",38.90273216425078,-76.99514991079923,15,42,classic
566,602,Kingman Island/The Fields at RFK,"['KEY', 'CREDITCARD']",38.89595455700754,-76.9678448436025,19,42,classic
567,603,Kenilworth Terrace & Hayes St. NE,"['KEY', 'CREDITCARD']",38.90046848783359,-76.9472873210907,19,42,classic
568,604,National Harbor Carousel,"['KEY', 'CREDITCARD']",38.7859,-77.0167,15,133,classic
569,605,Valley Ave & Wheeler Rd SE,"['KEY', 'CREDITCARD']",38.83664578175751,-76.99358886515256,19,42,classic
570,606,Ridge Rd Community Center,"['KEY', 'CREDITCARD']",38.876227445751475,-76.94098126958124,19,42,classic
571,607,Fort Stanton Rec Center,"['KEY', 'CREDITCARD']",38.85736903758752,-76.97768801437633,19,42,classic
572,608,Reservoir Rd & 38th St NW,"['KEY', 'CREDITCARD']",38.91261359469192,-77.07432264076488,19,42,classic
573,609,22nd & H St NW,"['KEY', 'CREDITCARD']",38.89892546716842,-77.04885238395946,17,42,classic
574,610,8th & H St NE,"['KEY', 'CREDITCARD']",38.899941626884754,-76.99489653110504,19,42,classic
575,611,Hardy Rec Center,"['KEY', 'CREDITCARD']",38.90970086204467,-77.08564639091492,17,42,classic
576,612,The Shoppes @ Burnt Mills,"['KEY', 'CREDITCARD']",39.0313141,-77.0041217,19,44,classic
577,613,Briggs Chaney & Castle Dr,"['KEY', 'CREDITCARD']",39.081638,-76.945495,19,44,classic
578,614,White Oak Rec Center,"['KEY', 'CREDITCARD']",39.0461435,-76.9757228,15,44,classic
579,615,Briggs Chaney Park & Ride,"['KEY', 'CREDITCARD']",39.0778751,-76.9418666,23,44,classic
580,616,Stewart & April,"['KEY', 'CREDITCARD']",39.0449444,-76.9811552,19,44,classic
581,617,Stewart Ln & Old Columbia Pike,"['KEY', 'CREDITCARD']",39.0456521,-76.9854381,19,44,classic
582,618,New Hampshire & Lockwood,"['KEY', 'CREDITCARD']",39.0391022,-76.9918237,19,44,classic
583,619,Castle Blvd & Castle Ln,"['KEY', 'CREDITCARD']",39.085314,-76.940547,19,44,classic
584,620,Oak Leaf & Lockwood,"['KEY', 'CREDITCARD']",39.0379809,-76.9945391,19,44,classic
585,621,White Oak Transit Center,"['KEY', 'CREDITCARD']",39.04104,-76.987125,19,44,classic
586,622,Wilson Blvd. & N. Vermont St.,"['KEY', 'CREDITCARD']",38.87947660895433,-77.11456328630447,12,41,classic
587,623,Oklahoma Ave & Benning Rd NE,"['KEY', 'CREDITCARD']",38.8974996,-76.9695094,19,42,classic
588,624,Minnesota Ave & R St SE,"['KEY', 'CREDITCARD']",38.8693365,-76.978519,19,42,classic
589,625,Vy Reston Heights,"['KEY', 'CREDITCARD']",38.949008,-77.355299,11,104,classic
590,626,1st & K St NE,"['KEY', 'CREDITCARD']",38.902386,-77.005649,17,42,classic
591,628,Wheeler Ave & S. Floyd St.,"['KEY', 'CREDITCARD']",38.808161,-77.100796,12,40,classic
592,629,N. Beauregard St. & Berkley St.,"['KEY', 'CREDITCARD']",38.840797,-77.108938,19,40,classic
593,630,Mt Vernon Trail & S. Washington St.,"['KEY', 'CREDITCARD']",38.7930647,-77.049436,15,40,classic
594,632,Eisenhower Ave & Ike Dr,"['KEY', 'CREDITCARD']",38.802738,-77.0824626,15,40,classic
595,633,Capitol Ave & Kendall St NE,"['KEY', 'CREDITCARD']",38.910993,-76.985854,19,,classic
